{
"type": "FeatureCollection",
"name": "Casos dengue 2015",
"crs": { "type": "name", "properties": { "name": "urn:ogc:def:crs:OGC:1.3:CRS84" } },
"features": [
{ "type": "Feature", "properties": { "Name": "RUA PADRE JOSE DE ANCHIETA, 1120, ACLIMAcAO, Joao Monlevade, Minas Gerais", "descriptio": "Rua José de Anchieta, João Monlevade - MG, 35930-108, Brazil", "timestamp": null, "begin": null, "end": null, "altitudeMo": "clampToGround", "tessellate": -1, "extrude": 0, "visibility": -1, "drawOrder": null, "icon": null }, "geometry": { "type": "Point", "coordinates": [ -43.1861, -19.81388 ] } },
{ "type": "Feature", "properties": { "Name": "AVENIDA GETULIO VARGAS, 369, AREIA PRETA, Joao Monlevade, Minas Gerais", "descriptio": "Avenida Getúlio Vargas, 369, João Monlevade - MG, 35930-150, Brazil", "timestamp": null, "begin": null, "end": null, "altitudeMo": "clampToGround", "tessellate": -1, "extrude": 0, "visibility": -1, "drawOrder": null, "icon": null }, "geometry": { "type": "Point", "coordinates": [ -43.13495, -19.81837 ] } },
{ "type": "Feature", "properties": { "Name": "MACONICA, 60, BELMONTE, Joao Monlevade, Minas Gerais", "descriptio": "Rua Macônica, 60, João Monlevade - MG, 35930-301, Brazil", "timestamp": null, "begin": null, "end": null, "altitudeMo": "clampToGround", "tessellate": -1, "extrude": 0, "visibility": -1, "drawOrder": null, "icon": null }, "geometry": { "type": "Point", "coordinates": [ -43.16006, -19.8158 ] } },
{ "type": "Feature", "properties": { "Name": "RUA MARIA CLEMENTINA BRAGA, 195, BELMONTE, Joao Monlevade, Minas Gerais", "descriptio": "Rua Maria Clementina Braga, 195, João Monlevade - MG, 35930-311, Brazil", "timestamp": null, "begin": null, "end": null, "altitudeMo": "clampToGround", "tessellate": -1, "extrude": 0, "visibility": -1, "drawOrder": null, "icon": null }, "geometry": { "type": "Point", "coordinates": [ -43.15818, -19.81624 ] } },
{ "type": "Feature", "properties": { "Name": "RUA MARIA CLEMENTINA BRAGA, 250, BELMONTE, Joao Monlevade, Minas Gerais", "descriptio": "Rua Maria Clementina Braga, 250, João Monlevade - MG, 35930-311, Brazil", "timestamp": null, "begin": null, "end": null, "altitudeMo": "clampToGround", "tessellate": -1, "extrude": 0, "visibility": -1, "drawOrder": null, "icon": null }, "geometry": { "type": "Point", "coordinates": [ -43.1571505, -19.8150315 ] } },
{ "type": "Feature", "properties": { "Name": "AV GETULIO VARGAS, 4237, CARNEIRINHOS, Joao Monlevade, Minas Gerais", "descriptio": "Avenida Getúlio Vargas, 4237, João Monlevade - MG, 35930-003, Brazil", "timestamp": null, "begin": null, "end": null, "altitudeMo": "clampToGround", "tessellate": -1, "extrude": 0, "visibility": -1, "drawOrder": null, "icon": null }, "geometry": { "type": "Point", "coordinates": [ -43.1620956, -19.8120551 ] } },
{ "type": "Feature", "properties": { "Name": "AVENIDA WILSON ALVARENGA, 610, CARNEIRINHOS, Joao Monlevade, Minas Gerais", "descriptio": "Avenida Wilson Alvarenga, 610, João Monlevade - MG, 35930-480, Brazil", "timestamp": null, "begin": null, "end": null, "altitudeMo": "clampToGround", "tessellate": -1, "extrude": 0, "visibility": -1, "drawOrder": null, "icon": null }, "geometry": { "type": "Point", "coordinates": [ -43.1689, -19.80917 ] } },
{ "type": "Feature", "properties": { "Name": "CECILIA MEIRELES, 67, CRUZEIRO CELESTE, Joao Monlevade, Minas Gerais", "descriptio": "Rua Cecília Meireles, 67, João Monlevade - MG, 35931-054, Brazil", "timestamp": null, "begin": null, "end": null, "altitudeMo": "clampToGround", "tessellate": -1, "extrude": 0, "visibility": -1, "drawOrder": null, "icon": null }, "geometry": { "type": "Point", "coordinates": [ -43.17193, -19.83854 ] } },
{ "type": "Feature", "properties": { "Name": "CECILIA MEIRELES, 111, CRUZEIRO CELESTE, Joao Monlevade, Minas Gerais", "descriptio": "Rua Cecília Meireles, 111, João Monlevade - MG, 35931-054, Brazil", "timestamp": null, "begin": null, "end": null, "altitudeMo": "clampToGround", "tessellate": -1, "extrude": 0, "visibility": -1, "drawOrder": null, "icon": null }, "geometry": { "type": "Point", "coordinates": [ -43.1719418, -19.8389739 ] } },
{ "type": "Feature", "properties": { "Name": "RUA SAO BENTO, 73, CRUZEIRO CELESTE, Joao Monlevade, Minas Gerais", "descriptio": "Rua São Bento, 73, João Monlevade - MG, 35931-076, Brazil", "timestamp": null, "begin": null, "end": null, "altitudeMo": "clampToGround", "tessellate": -1, "extrude": 0, "visibility": -1, "drawOrder": null, "icon": null }, "geometry": { "type": "Point", "coordinates": [ -43.17811, -19.83526 ] } },
{ "type": "Feature", "properties": { "Name": "RUA SANTO AMARO, 60, ERNESTINA GRACIANA, Joao Monlevade, Minas Gerais", "descriptio": "Rua Santo Amaro, 60, João Monlevade - MG, 35931-084, Brazil", "timestamp": null, "begin": null, "end": null, "altitudeMo": "clampToGround", "tessellate": -1, "extrude": 0, "visibility": -1, "drawOrder": null, "icon": null }, "geometry": { "type": "Point", "coordinates": [ -43.17829, -19.8359 ] } },
{ "type": "Feature", "properties": { "Name": "Rua Ipatinga, 680, INDUSTRIAL, Joao Monlevade, Minas Gerais", "descriptio": "Rua Ipatinga, 680, João Monlevade - MG, 35930-125, Brazil", "timestamp": null, "begin": null, "end": null, "altitudeMo": "clampToGround", "tessellate": -1, "extrude": 0, "visibility": -1, "drawOrder": null, "icon": null }, "geometry": { "type": "Point", "coordinates": [ -43.19785, -19.8138 ] } },
{ "type": "Feature", "properties": { "Name": "RUA CONEGO HIGINO, 85, JOSe DE ALENCAR, Joao Monlevade, Minas Gerais", "descriptio": "Rua Cônego Higino, 85, João Monlevade - MG, 35930-274, Brazil", "timestamp": null, "begin": null, "end": null, "altitudeMo": "clampToGround", "tessellate": -1, "extrude": 0, "visibility": -1, "drawOrder": null, "icon": null }, "geometry": { "type": "Point", "coordinates": [ -43.16697, -19.81778 ] } },
{ "type": "Feature", "properties": { "Name": "RUA AMBROSIO  DA COSTA, 35, JOSe DE ALENCAR, Joao Monlevade, Minas Gerais", "descriptio": "Rua José de Alencar, 35, João Monlevade - MG, 35931-047, Brazil", "timestamp": null, "begin": null, "end": null, "altitudeMo": "clampToGround", "tessellate": -1, "extrude": 0, "visibility": -1, "drawOrder": null, "icon": null }, "geometry": { "type": "Point", "coordinates": [ -43.1709829, -19.8373938 ] } },
{ "type": "Feature", "properties": { "Name": "RUA PONTAL, 167, LARANJEIRAS, Joao Monlevade, Minas Gerais", "descriptio": "Rua do Pontal, 167, João Monlevade - MG, 35930-293, Brazil", "timestamp": null, "begin": null, "end": null, "altitudeMo": "clampToGround", "tessellate": -1, "extrude": 0, "visibility": -1, "drawOrder": null, "icon": null }, "geometry": { "type": "Point", "coordinates": [ -43.15603, -19.82828 ] } },
{ "type": "Feature", "properties": { "Name": "RUA VARGEM LINDA, 72, LARANJEIRAS, Joao Monlevade, Minas Gerais", "descriptio": "Rua Vargem Linda, 72, João Monlevade - MG, 35930-391, Brazil", "timestamp": null, "begin": null, "end": null, "altitudeMo": "clampToGround", "tessellate": -1, "extrude": 0, "visibility": -1, "drawOrder": null, "icon": null }, "geometry": { "type": "Point", "coordinates": [ -43.15668, -19.82757 ] } },
{ "type": "Feature", "properties": { "Name": "RUA PONTAL, 97, LARANJEIRAS, Joao Monlevade, Minas Gerais", "descriptio": "Rua do Pontal, 97, João Monlevade - MG, 35930-293, Brazil", "timestamp": null, "begin": null, "end": null, "altitudeMo": "clampToGround", "tessellate": -1, "extrude": 0, "visibility": -1, "drawOrder": null, "icon": null }, "geometry": { "type": "Point", "coordinates": [ -43.15693, -19.82789 ] } },
{ "type": "Feature", "properties": { "Name": "rua trinta e quatro, 578, LOANDA, Joao Monlevade, Minas Gerais", "descriptio": "Rua Trinta e Quatro, 578, João Monlevade - MG, 35931-072, Brazil", "timestamp": null, "begin": null, "end": null, "altitudeMo": "clampToGround", "tessellate": -1, "extrude": 0, "visibility": -1, "drawOrder": null, "icon": null }, "geometry": { "type": "Point", "coordinates": [ -43.16876, -19.83361 ] } },
{ "type": "Feature", "properties": { "Name": "rua trinta , 110, LOANDA, Joao Monlevade, Minas Gerais", "descriptio": "Rua Trinta, 110, João Monlevade - MG, 35931-014, Brazil", "timestamp": null, "begin": null, "end": null, "altitudeMo": "clampToGround", "tessellate": -1, "extrude": 0, "visibility": -1, "drawOrder": null, "icon": null }, "geometry": { "type": "Point", "coordinates": [ -43.1355833, -19.8205152 ] } },
{ "type": "Feature", "properties": { "Name": "AVENIDA CANDIDO DIAS, 1701, LOANDA, Joao Monlevade, Minas Gerais", "descriptio": "Avenida Cândido Dias, 1701, João Monlevade - MG, 35931-011, Brazil", "timestamp": null, "begin": null, "end": null, "altitudeMo": "clampToGround", "tessellate": -1, "extrude": 0, "visibility": -1, "drawOrder": null, "icon": null }, "geometry": { "type": "Point", "coordinates": [ -43.16927, -19.83345 ] } },
{ "type": "Feature", "properties": { "Name": "AVENIDA CANDIDO DIAS, 53, LOANDA, Joao Monlevade, Minas Gerais", "descriptio": "Avenida Cândido Dias, 53, João Monlevade - MG, 35931-011, Brazil", "timestamp": null, "begin": null, "end": null, "altitudeMo": "clampToGround", "tessellate": -1, "extrude": 0, "visibility": -1, "drawOrder": null, "icon": null }, "geometry": { "type": "Point", "coordinates": [ -43.16319, -19.82021 ] } },
{ "type": "Feature", "properties": { "Name": "AV CANDIDO DIAS, 1431, LOANDA, Joao Monlevade, Minas Gerais", "descriptio": "Avenida Cândido Dias, 1431, João Monlevade - MG, 35931-011, Brazil", "timestamp": null, "begin": null, "end": null, "altitudeMo": "clampToGround", "tessellate": -1, "extrude": 0, "visibility": -1, "drawOrder": null, "icon": null }, "geometry": { "type": "Point", "coordinates": [ -43.1679, -19.83133 ] } },
{ "type": "Feature", "properties": { "Name": "AVENIDA ARMANDO FAJARDO, 1887, LOANDA, Joao Monlevade, Minas Gerais", "descriptio": "Avenida Armando Fajardo, 1887, João Monlevade - MG, 35931-000, Brazil", "timestamp": null, "begin": null, "end": null, "altitudeMo": "clampToGround", "tessellate": -1, "extrude": 0, "visibility": -1, "drawOrder": null, "icon": null }, "geometry": { "type": "Point", "coordinates": [ -43.16361, -19.82764 ] } },
{ "type": "Feature", "properties": { "Name": "AVENIDA Armando Farjado, 137, LOANDA, Joao Monlevade, Minas Gerais", "descriptio": "Avenida Armando Fajardo, João Monlevade - MG, 35931-073, Brazil", "timestamp": null, "begin": null, "end": null, "altitudeMo": "clampToGround", "tessellate": -1, "extrude": 0, "visibility": -1, "drawOrder": null, "icon": null }, "geometry": { "type": "Point", "coordinates": [ -43.17685, -19.8363 ] } },
{ "type": "Feature", "properties": { "Name": "AVENIDA CANDIDO DIAS, 1758, LOANDA, Joao Monlevade, Minas Gerais", "descriptio": "Avenida Cândido Dias, 1758, João Monlevade - MG, 35931-011, Brazil", "timestamp": null, "begin": null, "end": null, "altitudeMo": "clampToGround", "tessellate": -1, "extrude": 0, "visibility": -1, "drawOrder": null, "icon": null }, "geometry": { "type": "Point", "coordinates": [ -43.16962, -19.83368 ] } },
{ "type": "Feature", "properties": { "Name": "AVENIDA ARMANDO FAJARDO, 1880, LOANDA, Joao Monlevade, Minas Gerais", "descriptio": "Avenida Armando Fajardo, João Monlevade - MG, 35931-073, Brazil", "timestamp": null, "begin": null, "end": null, "altitudeMo": "clampToGround", "tessellate": -1, "extrude": 0, "visibility": -1, "drawOrder": null, "icon": null }, "geometry": { "type": "Point", "coordinates": [ -43.17685, -19.8363 ] } },
{ "type": "Feature", "properties": { "Name": "RUA NEREU RAMOS, 97, LOURDES, Joao Monlevade, Minas Gerais", "descriptio": "Rua Nereu Ramos, 97, João Monlevade - MG, 35930-056, Brazil", "timestamp": null, "begin": null, "end": null, "altitudeMo": "clampToGround", "tessellate": -1, "extrude": 0, "visibility": -1, "drawOrder": null, "icon": null }, "geometry": { "type": "Point", "coordinates": [ -43.1792393, -19.815776 ] } },
{ "type": "Feature", "properties": { "Name": "Rua Brasilia , 73, LUCILIA, Joao Monlevade, Minas Gerais", "descriptio": "Rua Brasília, 73, João Monlevade - MG, 35930-010, Brazil", "timestamp": null, "begin": null, "end": null, "altitudeMo": "clampToGround", "tessellate": -1, "extrude": 0, "visibility": -1, "drawOrder": null, "icon": null }, "geometry": { "type": "Point", "coordinates": [ -43.1551688, -19.8262066 ] } },
{ "type": "Feature", "properties": { "Name": "RUA SAO JOAO DEL REI, 29, METALURGICO, Joao Monlevade, Minas Gerais", "descriptio": "Rua São João del Rei, 29, João Monlevade - MG, 35930-331, Brazil", "timestamp": null, "begin": null, "end": null, "altitudeMo": "clampToGround", "tessellate": -1, "extrude": 0, "visibility": -1, "drawOrder": null, "icon": null }, "geometry": { "type": "Point", "coordinates": [ -43.1544617, -19.8203207 ] } },
{ "type": "Feature", "properties": { "Name": "RUA MARQUES DE FUNCHAL, 239, NOVO CRUZEIRO, Joao Monlevade, Minas Gerais", "descriptio": "Rua Marquês de Funchal, João Monlevade - MG, 35931-117, Brazil", "timestamp": null, "begin": null, "end": null, "altitudeMo": "clampToGround", "tessellate": -1, "extrude": 0, "visibility": -1, "drawOrder": null, "icon": null }, "geometry": { "type": "Point", "coordinates": [ -43.18169, -19.84875 ] } },
{ "type": "Feature", "properties": { "Name": "RUA CASSIMIRO DE ABREU, 228, PALMARES, Joao Monlevade, Minas Gerais", "descriptio": "Rua Cassemiro de Abreu, 228, João Monlevade - MG, 35931-044, Brazil", "timestamp": null, "begin": null, "end": null, "altitudeMo": "clampToGround", "tessellate": -1, "extrude": 0, "visibility": -1, "drawOrder": null, "icon": null }, "geometry": { "type": "Point", "coordinates": [ -43.170904, -19.8393038 ] } },
{ "type": "Feature", "properties": { "Name": "RUA JOSE DE ALENCAR, 335, PALMARES, Joao Monlevade, Minas Gerais", "descriptio": "Rua José de Alencar, 335, João Monlevade - MG, 35931-047, Brazil", "timestamp": null, "begin": null, "end": null, "altitudeMo": "clampToGround", "tessellate": -1, "extrude": 0, "visibility": -1, "drawOrder": null, "icon": null }, "geometry": { "type": "Point", "coordinates": [ -43.1704, -19.83802 ] } },
{ "type": "Feature", "properties": { "Name": "RUA EQUADOR, 168, PETROPOLIS, Joao Monlevade, Minas Gerais", "descriptio": "Rua Equador, 168, João Monlevade - MG, 35931-147, Brazil", "timestamp": null, "begin": null, "end": null, "altitudeMo": "clampToGround", "tessellate": -1, "extrude": 0, "visibility": -1, "drawOrder": null, "icon": null }, "geometry": { "type": "Point", "coordinates": [ -43.18439, -19.84549 ] } },
{ "type": "Feature", "properties": { "Name": "RUA SAO BENTO, 1758, PROMORAR, Joao Monlevade, Minas Gerais", "descriptio": "Rua São Bento, João Monlevade - MG, 35931-076, Brazil", "timestamp": null, "begin": null, "end": null, "altitudeMo": "clampToGround", "tessellate": -1, "extrude": 0, "visibility": -1, "drawOrder": null, "icon": null }, "geometry": { "type": "Point", "coordinates": [ -43.17778, -19.83516 ] } },
{ "type": "Feature", "properties": { "Name": "RUA MARECHAL, 202, REPUBLICA, Joao Monlevade, Minas Gerais", "descriptio": "REPUBLICA, Brazil", "timestamp": null, "begin": null, "end": null, "altitudeMo": "clampToGround", "tessellate": -1, "extrude": 0, "visibility": -1, "drawOrder": null, "icon": null }, "geometry": { "type": "Point", "coordinates": [ -43.1825104, -19.8138981 ] } },
{ "type": "Feature", "properties": { "Name": "RUA CAFE FILHO, 88, REPUBLICA, Joao Monlevade, Minas Gerais", "descriptio": "Rua Café Filho, 88, João Monlevade - MG, 35930-106, Brazil", "timestamp": null, "begin": null, "end": null, "altitudeMo": "clampToGround", "tessellate": -1, "extrude": 0, "visibility": -1, "drawOrder": null, "icon": null }, "geometry": { "type": "Point", "coordinates": [ -43.18537, -19.81486 ] } },
{ "type": "Feature", "properties": { "Name": "RUA BARRA MANSA, 1155, ROSARIO, Joao Monlevade, Minas Gerais", "descriptio": "Rua Barra Mansa, 1155, João Monlevade - MG, 35930-172, Brazil", "timestamp": null, "begin": null, "end": null, "altitudeMo": "clampToGround", "tessellate": -1, "extrude": 0, "visibility": -1, "drawOrder": null, "icon": null }, "geometry": { "type": "Point", "coordinates": [ -43.17755, -19.79903 ] } },
{ "type": "Feature", "properties": { "Name": "TRAVESSA BEM-TE-VI, 169, SION, Joao Monlevade, Minas Gerais", "descriptio": "SION, Brazil", "timestamp": null, "begin": null, "end": null, "altitudeMo": "clampToGround", "tessellate": -1, "extrude": 0, "visibility": -1, "drawOrder": null, "icon": null }, "geometry": { "type": "Point", "coordinates": [ -43.1885414, -19.8323689 ] } },
{ "type": "Feature", "properties": { "Name": "Rua GATA SUL, 465, VERA CRUZ, Joao Monlevade, Minas Gerais", "descriptio": "Rua Gata Sul, 465, João Monlevade - MG, 35931-027, Brazil", "timestamp": null, "begin": null, "end": null, "altitudeMo": "clampToGround", "tessellate": -1, "extrude": 0, "visibility": -1, "drawOrder": null, "icon": null }, "geometry": { "type": "Point", "coordinates": [ -43.1670558, -19.8388306 ] } },
{ "type": "Feature", "properties": { "Name": "RUA SETE LAGOAS, 34, Lurdes, Joao Monlevade, Minas Gerais", "descriptio": "Rua Sete Lagoas, 34, João Monlevade - MG, 35930-046, Brazil", "timestamp": null, "begin": null, "end": null, "altitudeMo": "clampToGround", "tessellate": -1, "extrude": 0, "visibility": -1, "drawOrder": null, "icon": null }, "geometry": { "type": "Point", "coordinates": [ -43.17796, -19.81278 ] } },
{ "type": "Feature", "properties": { "Name": "NOSSA SENHORA DA CONCEICAO, 73, josé Eloi, Joao Monlevade, Minas Gerais", "descriptio": "Rua Nossa Senhora da Conceição, 73, João Monlevade - MG, 35930-203, Brazil", "timestamp": null, "begin": null, "end": null, "altitudeMo": "clampToGround", "tessellate": -1, "extrude": 0, "visibility": -1, "drawOrder": null, "icon": null }, "geometry": { "type": "Point", "coordinates": [ -43.17146, -19.80394 ] } }
]
}
